[
  {
    "name": "Indira Gandhi International Airport",
    "city": "New Delhi",
    "country": "India",
    "iata": "DEL",
    "icao": "VIDP",
    "lat": 28.5562,
    "lng": 77.1000
  },
  {
    "name": "Chhatrapati Shivaji Maharaj International Airport",
    "city": "Mumbai",
    "country": "India",
    "iata": "BOM",
    "icao": "VABB",
    "lat": 19.0896,
    "lng": 72.8656
  },
  {
    "name": "Kempegowda International Airport",
    "city": "Bengaluru",
    "country": "India",
    "iata": "BLR",
    "icao": "VOBL",
    "lat": 13.1989,
    "lng": 77.7068
  },
  {
    "name": "Chennai International Airport",
    "city": "Chennai",
    "country": "India",
    "iata": "MAA",
    "icao": "VOMM",
    "lat": 12.9941,
    "lng": 80.1709
  },
  {
    "name": "Netaji Subhas Chandra Bose International Airport",
    "city": "Kolkata",
    "country": "India",
    "iata": "CCU",
    "icao": "VECC",
    "lat": 22.6540,
    "lng": 88.4467
  },
  {
    "name": "Rajiv Gandhi International Airport",
    "city": "Hyderabad",
    "country": "India",
    "iata": "HYD",
    "icao": "VOHS",
    "lat": 17.2403,
    "lng": 78.4294
  },
  {
    "name": "Cochin International Airport",
    "city": "Kochi",
    "country": "India",
    "iata": "COK",
    "icao": "VOCI",
    "lat": 10.1520,
    "lng": 76.3930
  },
  {
    "name": "Trivandrum International Airport",
    "city": "Thiruvananthapuram",
    "country": "India",
    "iata": "TRV",
    "icao": "VOTV",
    "lat": 8.4821,
    "lng": 76.9200
  },
  {
    "name": "Calicut International Airport",
    "city": "Kozhikode",
    "country": "India",
    "iata": "CCJ",
    "icao": "VOCL",
    "lat": 11.1368,
    "lng": 75.9553
  },
  {
    "name": "Kannur International Airport",
    "city": "Kannur",
    "country": "India",
    "iata": "CNN",
    "icao": "VOKN",
    "lat": 11.9161,
    "lng": 75.5458
  },
  {
    "name": "Goa International Airport",
    "city": "Dabolim",
    "country": "India",
    "iata": "GOI",
    "icao": "VOGO",
    "lat": 15.3808,
    "lng": 73.8313
  },
  {
    "name": "Sardar Vallabhbhai Patel International Airport",
    "city": "Ahmedabad",
    "country": "India",
    "iata": "AMD",
    "icao": "VAAH",
    "lat": 23.0734,
    "lng": 72.6261
  },
  {
    "name": "Pune Airport",
    "city": "Pune",
    "country": "India",
    "iata": "PNQ",
    "icao": "VAPO",
    "lat": 18.5821,
    "lng": 73.9197
  },
  {
    "name": "Biju Patnaik International Airport",
    "city": "Bhubaneswar",
    "country": "India",
    "iata": "BBI",
    "icao": "VEBS",
    "lat": 20.2444,
    "lng": 85.8178
  },
  {
    "name": "Lokpriya Gopinath Bordoloi International Airport",
    "city": "Guwahati",
    "country": "India",
    "iata": "GAU",
    "icao": "VEGT",
    "lat": 26.1061,
    "lng": 91.5859
  }
]
